City_ID,City,Lat,Lng,Max Temp,Humidity,Cloudiness,Wind Speed,Country,Date
0,Los Llanos De Aridane,28.6585,-17.9182,71.13,99,100,10.36,ES,2022-09-25 15:14:12
1,Wokha,26.1,94.2667,60.13,100,100,0.56,IN,2022-09-25 15:14:12
2,East London,-33.0153,27.9116,67.14,82,0,21.85,ZA,2022-09-25 15:14:13
3,Leningradskiy,69.3833,178.4167,30.96,93,100,6.11,RU,2022-09-25 15:14:13
4,Rikitea,-23.1203,-134.9692,67.59,63,12,20.0,PF,2022-09-25 15:14:14
5,Conakry,9.538,-13.6773,80.67,78,75,11.5,GN,2022-09-25 15:14:14
6,Cidreira,-30.1811,-50.2056,64.27,72,90,16.62,BR,2022-09-25 15:14:16
7,Mataura,-46.1927,168.8643,49.48,97,100,1.39,NZ,2022-09-25 15:14:16
8,Amahai,-3.3333,128.9167,78.22,83,95,4.23,ID,2022-09-25 15:14:16
9,Norman Wells,65.282,-126.8329,23.04,93,40,4.61,CA,2022-09-25 15:14:17
10,Hithadhoo,-0.6,73.0833,76.95,88,100,11.81,MV,2022-09-25 15:14:17
11,Punta Arenas,-53.15,-70.9167,48.31,49,40,23.02,CL,2022-09-25 15:07:03
12,Faanui,-16.4833,-151.75,77.2,77,17,19.04,PF,2022-09-25 15:14:18
13,Kaiyuan,23.6977,103.3037,64.27,93,93,3.4,CN,2022-09-25 15:14:18
14,Hermanus,-34.4187,19.2345,66.79,76,100,8.03,ZA,2022-09-25 15:14:19
15,Marawi,7.9986,124.2928,70.68,87,100,5.57,PH,2022-09-25 15:14:19
16,Albany,42.6001,-73.9662,62.73,67,95,1.01,US,2022-09-25 15:10:37
17,Bredasdorp,-34.5322,20.0403,64.09,63,89,11.3,ZA,2022-09-25 15:14:20
18,Fortuna,40.5982,-124.1573,50.34,56,0,2.89,US,2022-09-25 15:14:20
19,Pyaozerskiy,65.8333,31.1667,44.15,73,100,6.73,RU,2022-09-25 15:14:21
20,Sur,22.5667,59.5289,86.86,62,6,1.01,OM,2022-09-25 15:14:21
21,Grafton,42.207,-71.6856,64.06,70,0,10.36,US,2022-09-25 15:14:21
22,Bambous Virieux,-20.3428,57.7575,72.21,73,40,12.66,MU,2022-09-25 15:14:22
23,Butaritari,3.0707,172.7902,81.03,72,1,10.4,KI,2022-09-25 15:14:22
24,Cape Town,-33.9258,18.4232,68.88,62,20,9.22,ZA,2022-09-25 15:14:23
25,Tsnori,41.6209,45.9694,65.46,41,0,3.27,GE,2022-09-25 15:14:23
26,Funadhoo,6.15,73.2667,82.89,75,48,12.82,MV,2022-09-25 15:14:23
27,Zhuhai,22.2769,113.5678,83.98,78,0,12.66,CN,2022-09-25 15:14:24
28,Tasiilaq,65.6145,-37.6368,51.96,51,29,10.25,GL,2022-09-25 15:14:24
29,Asfi,32.2994,-9.2372,70.83,70,100,11.43,MA,2022-09-25 15:14:18
30,Busselton,-33.65,115.3333,51.19,86,1,6.93,AU,2022-09-25 15:09:39
31,San Patricio,28.017,-97.5169,84.29,66,2,4.34,US,2022-09-25 15:14:25
32,Barrow,71.2906,-156.7887,30.22,86,100,21.85,US,2022-09-25 15:14:25
33,Half Moon Bay,37.4636,-122.4286,63.61,92,100,6.91,US,2022-09-25 15:14:26
34,Madimba,-10.4,40.3333,77.31,75,9,9.08,TZ,2022-09-25 15:14:26
35,Taga,46.95,24.05,61.32,65,100,4.32,RO,2022-09-25 15:14:27
36,Kaitangata,-46.2817,169.8464,47.53,94,100,3.96,NZ,2022-09-25 15:14:27
37,Mar Del Plata,-38.0023,-57.5575,59.02,75,0,11.5,AR,2022-09-25 15:14:27
38,Aguimes,27.9054,-15.4461,68.63,94,100,4.61,ES,2022-09-25 15:14:28
39,Port Elizabeth,-33.918,25.5701,68.09,87,99,8.01,ZA,2022-09-25 15:14:28
40,Kalispell,48.1958,-114.3129,56.03,87,0,0.0,US,2022-09-25 15:14:29
41,San Quintin,30.4833,-115.95,72.73,81,0,8.9,MX,2022-09-25 15:14:29
42,Ribeira Grande,38.5167,-28.7,73.8,83,40,25.32,PT,2022-09-25 15:14:30
43,Basugaon,26.4667,90.4,75.4,92,95,4.92,IN,2022-09-25 15:14:30
44,Paamiut,61.994,-49.6678,41.5,87,100,7.25,GL,2022-09-25 15:14:30
45,Jamestown,42.097,-79.2353,59.02,75,100,10.0,US,2022-09-25 15:14:31
46,Kapaa,22.0752,-159.319,75.18,94,0,6.91,US,2022-09-25 15:15:31
47,Ancud,-41.8697,-73.8203,48.22,74,91,10.65,CL,2022-09-25 15:15:32
48,Ushuaia,-54.8,-68.3,40.66,70,75,8.05,AR,2022-09-25 15:11:31
49,Puerto Ayora,-0.7393,-90.3518,67.55,94,100,11.99,EC,2022-09-25 15:15:32
50,Carnarvon,-24.8667,113.6333,65.08,63,0,28.25,AU,2022-09-25 15:15:33
51,Avarua,-21.2078,-159.775,73.45,83,40,11.5,CK,2022-09-25 15:15:33
52,Inuvik,68.3499,-133.7218,32.86,93,75,5.75,CA,2022-09-25 15:15:33
53,Santa Rosa,14.3122,121.1114,77.11,96,100,20.0,PH,2022-09-25 15:15:34
54,Namtsy,62.7161,129.6658,35.31,96,100,5.41,RU,2022-09-25 15:15:34
55,Bluff,-46.6,168.3333,49.8,92,96,4.23,NZ,2022-09-25 15:15:35
56,Bezhanitsy,56.9767,29.8907,46.26,85,100,4.52,RU,2022-09-25 15:15:35
57,Birjand,32.8663,59.2211,77.47,7,0,9.22,IR,2022-09-25 15:15:35
58,Georgetown,5.4112,100.3354,81.9,79,20,0.0,MY,2022-09-25 15:11:31
59,Thompson,55.7435,-97.8558,44.76,61,75,18.41,CA,2022-09-25 15:15:24
60,Ouesso,1.6136,16.0517,88.18,51,29,1.59,CG,2022-09-25 15:15:36
61,Alofi,-19.0595,-169.9187,73.29,94,100,4.61,NU,2022-09-25 15:15:37
62,Qaanaaq,77.484,-69.3632,30.79,72,100,12.06,GL,2022-09-25 15:15:37
63,Resistencia,-27.4606,-58.9839,76.1,37,0,5.75,AR,2022-09-25 15:10:49
64,Chengde,40.9725,117.9361,55.98,47,0,0.89,CN,2022-09-25 15:15:38
65,Kaeo,-35.1,173.7833,60.33,87,77,12.5,NZ,2022-09-25 15:15:38
66,Santarem,-2.4431,-54.7083,87.93,74,20,9.22,BR,2022-09-25 15:15:38
67,Bengkulu,-3.8004,102.2655,75.31,88,77,2.86,ID,2022-09-25 15:15:39
68,Nanortalik,60.1432,-45.2371,52.92,77,94,19.86,GL,2022-09-25 15:15:39
69,Khatanga,71.9667,102.5,23.54,97,100,6.38,RU,2022-09-25 15:15:39
70,Hobart,-42.8794,147.3294,47.05,91,52,5.75,AU,2022-09-25 15:11:05
71,Airai,-8.9266,125.4092,59.49,75,44,2.37,TL,2022-09-25 15:15:40
72,Atuona,-9.8,-139.0333,76.41,77,72,19.98,PF,2022-09-25 15:15:41
73,Praia,14.9215,-23.5087,86.54,58,20,12.66,CV,2022-09-25 15:15:42
74,Kogon,39.7228,64.5517,75.24,41,0,2.3,UZ,2022-09-25 15:15:42
75,New Norfolk,-42.7826,147.0587,47.71,80,70,2.86,AU,2022-09-25 15:15:42
76,Tiksi,71.6872,128.8694,32.79,83,89,21.77,RU,2022-09-25 15:15:43
77,Tuatapere,-46.1333,167.6833,49.06,93,99,0.65,NZ,2022-09-25 15:15:43
78,Marovoay,-16.1,46.6333,90.1,29,62,10.07,MG,2022-09-25 15:15:44
79,Saint-Philippe,-21.3585,55.7679,71.19,81,36,13.53,RE,2022-09-25 15:15:44
80,Bethel,41.3712,-73.414,66.52,72,20,4.61,US,2022-09-25 15:15:44
81,Longyearbyen,78.2186,15.6401,44.44,76,75,10.36,SJ,2022-09-25 15:15:45
82,Klaksvik,62.2266,-6.589,47.32,79,35,35.77,FO,2022-09-25 15:15:46
83,Port Macquarie,-31.4333,152.9167,53.89,91,4,4.94,AU,2022-09-25 15:15:47
84,Hilo,19.7297,-155.09,77.29,95,100,5.75,US,2022-09-25 15:15:48
85,Balkhash,46.844,74.9804,66.63,40,0,8.19,KZ,2022-09-25 15:15:49
86,Fort Nelson,58.8053,-122.7002,38.79,81,100,0.0,CA,2022-09-25 15:15:22
87,Saldanha,-33.0117,17.9442,64.45,72,100,8.99,ZA,2022-09-25 15:15:49
88,Geraldton,-28.7667,114.6,52.21,87,0,9.22,AU,2022-09-25 15:15:50
89,Ubinskoye,55.3068,79.6802,40.44,92,100,13.87,RU,2022-09-25 15:15:50
90,Whitianga,-36.8333,175.7,55.29,84,67,8.79,NZ,2022-09-25 15:15:51
91,Port Alfred,-33.5906,26.891,64.18,83,85,5.01,ZA,2022-09-25 15:15:51
92,Tumbagaan,5.3656,120.3139,79.77,84,98,9.53,PH,2022-09-25 15:15:51
93,Sola,-13.8833,167.55,75.87,100,100,0.0,VU,2022-09-25 15:16:52
94,Saint-Francois,46.4154,3.9054,57.67,88,100,5.75,FR,2022-09-25 15:16:52
95,Nhulunbuy,-12.2333,136.7667,75.81,88,91,3.44,AU,2022-09-25 15:16:53
96,Lhokseumawe,5.1801,97.1507,79.23,84,100,4.88,ID,2022-09-25 15:16:53
97,Mariinskiy Posad,56.115,47.718,49.14,85,100,4.36,RU,2022-09-25 15:16:54
98,Cabo San Lucas,22.8909,-109.9124,85.51,76,0,4.61,MX,2022-09-25 15:16:54
99,Talnakh,69.4865,88.3972,25.21,78,14,4.18,RU,2022-09-25 15:16:54
100,Mount Isa,-20.7333,139.5,58.77,44,0,0.0,AU,2022-09-25 15:16:55
101,General Jose Eduvigis Diaz,-27.1667,-58.4167,77.09,38,85,5.17,PY,2022-09-25 15:16:55
102,Saint George,37.1041,-113.5841,66.79,32,0,5.75,US,2022-09-25 15:07:04
103,Labuhan,-6.8844,112.2051,81.77,73,100,5.39,ID,2022-09-25 15:16:56
104,Merauke,-8.4667,140.3333,78.55,88,100,11.16,ID,2022-09-25 15:16:56
105,Pevek,69.7008,170.3133,29.44,74,26,4.72,RU,2022-09-25 15:16:57
106,Zhigansk,66.7697,123.3711,30.24,95,100,7.47,RU,2022-09-25 15:16:57
107,Vaini,-21.2,-175.2,75.36,94,75,4.61,TO,2022-09-25 15:16:58
108,Rocha,-34.4833,-54.3333,64.98,42,100,11.01,UY,2022-09-25 15:16:58
109,Denpasar,-8.65,115.2167,80.26,88,40,6.91,ID,2022-09-25 15:16:58
110,Morondava,-20.2833,44.2833,77.61,76,0,13.65,MG,2022-09-25 15:16:59
111,Saskylakh,71.9167,114.0833,30.38,89,100,13.44,RU,2022-09-25 15:16:59
112,Dikson,73.5069,80.5464,32.85,83,100,21.41,RU,2022-09-25 15:17:00
113,Puri,19.8,85.85,79.32,76,89,7.47,IN,2022-09-25 15:17:00
114,Umm Lajj,25.0213,37.2685,90.34,51,98,4.85,SA,2022-09-25 15:17:01
115,Khorixas,-20.3667,14.9667,83.21,11,9,20.0,NA,2022-09-25 15:17:01
116,Chuy,-33.6971,-53.4616,63.73,56,83,12.1,UY,2022-09-25 15:17:02
117,Beruwala,6.4788,79.9828,80.11,86,36,7.27,LK,2022-09-25 15:17:02
118,Comodoro Rivadavia,-45.8667,-67.5,55.26,44,0,13.8,AR,2022-09-25 15:12:31
119,Doha,25.2867,51.5333,94.98,63,0,13.8,QA,2022-09-25 15:14:26
120,Chokurdakh,70.6333,147.9167,30.27,80,98,8.84,RU,2022-09-25 15:17:03
121,Pekan,3.4836,103.3996,80.71,80,100,5.99,MY,2022-09-25 15:17:03
122,Baijiantan,45.6333,85.1833,77.76,19,0,7.05,CN,2022-09-25 15:17:03
123,Codrington,-38.2667,141.9667,50.67,84,100,4.7,AU,2022-09-25 15:17:04
124,Sangar,63.9242,127.4739,33.66,99,100,0.72,RU,2022-09-25 15:17:04
125,Coolum Beach,-26.5333,153.1,61.34,97,1,1.97,AU,2022-09-25 15:17:05
126,Vao,-22.6667,167.4833,73.18,82,0,11.65,NC,2022-09-25 15:17:05
127,Hualmay,-11.0964,-77.6139,64.35,74,81,12.53,PE,2022-09-25 15:17:05
128,Waingapu,-9.6567,120.2641,78.39,80,97,4.09,ID,2022-09-25 15:17:06
129,Chowchilla,37.123,-120.2602,68.02,64,0,0.0,US,2022-09-25 15:17:06
130,Bjornevatn,69.6672,29.9847,48.54,66,0,9.22,NO,2022-09-25 15:17:07
131,Victoria,22.2855,114.1577,84.38,80,4,5.99,HK,2022-09-25 15:16:33
132,Havre-Saint-Pierre,50.2334,-63.5986,50.36,66,100,19.57,CA,2022-09-25 15:17:07
133,Souillac,-20.5167,57.5167,71.98,73,40,12.66,MU,2022-09-25 15:17:08
134,Luang Prabang,19.8856,102.1347,72.64,94,19,1.07,LA,2022-09-25 15:17:08
135,Turukhansk,65.8167,87.9833,27.07,95,100,3.38,RU,2022-09-25 15:17:09
136,Bontang,0.1333,117.5,78.12,85,100,6.55,ID,2022-09-25 15:18:09
137,Illapel,-31.6308,-71.1653,61.92,50,87,5.53,CL,2022-09-25 15:18:10
138,Reo,12.3167,-2.4667,89.76,50,14,3.31,BF,2022-09-25 15:18:10
139,La Pila,22.05,-100.8667,56.88,58,4,2.59,MX,2022-09-25 15:18:10
140,Kidal,18.4411,1.4078,104.88,11,23,10.63,ML,2022-09-25 15:18:11
141,Kondapalle,16.6167,80.5333,85.05,75,92,4.99,IN,2022-09-25 15:18:11
142,Sicamous,50.8331,-118.9856,43.77,71,12,1.81,CA,2022-09-25 15:15:24
143,Semnan,35.5729,53.3971,79.07,40,1,10.54,IR,2022-09-25 15:18:12
144,Guerrero Negro,27.9769,-114.0611,73.42,82,1,9.93,MX,2022-09-25 15:18:12
145,Margate,51.3813,1.3862,63.3,55,66,4.0,GB,2022-09-25 15:18:12
146,Narsaq,60.9167,-46.05,53.82,64,100,6.93,GL,2022-09-25 15:18:13
147,Sabang,5.8933,95.3214,82.2,79,100,16.69,ID,2022-09-25 15:18:14
148,Naze,28.3667,129.4833,77.92,83,17,8.61,JP,2022-09-25 15:18:14
149,Shache,38.4167,77.2406,73.56,31,100,11.63,CN,2022-09-25 15:18:15
150,Karakol,42.4907,78.3936,55.72,37,0,4.12,KG,2022-09-25 15:18:16
151,Kununurra,-15.7667,128.7333,78.78,78,99,5.75,AU,2022-09-25 15:18:16
152,Inhambane,-23.865,35.3833,75.92,73,0,12.5,MZ,2022-09-25 15:18:17
153,Yuxia,34.0615,108.6291,65.01,64,89,6.44,CN,2022-09-25 15:18:17
154,Kamennomostskiy,44.2983,40.1856,53.82,78,4,4.38,RU,2022-09-25 15:18:18
155,Swan River,52.1058,-101.2676,53.49,58,0,9.22,CA,2022-09-25 15:18:18
156,Salalah,17.0151,54.0924,82.49,89,75,11.5,OM,2022-09-25 15:15:31
157,Upernavik,72.7868,-56.1549,32.13,78,100,11.03,GL,2022-09-25 15:18:19
158,Kamaishi,39.2667,141.8833,64.17,88,95,4.56,JP,2022-09-25 15:18:19
159,Tuktoyaktuk,69.4541,-133.0374,30.2,86,100,11.5,CA,2022-09-25 15:18:20
160,Douglas,41.3,-96.167,67.6,55,0,12.66,US,2022-09-25 15:18:20
161,Srednekolymsk,67.45,153.6833,30.52,73,13,6.87,RU,2022-09-25 15:18:20
162,Westport,41.1415,-73.3579,70.75,71,75,8.05,US,2022-09-25 15:14:50
163,Beringovskiy,63.05,179.3167,33.28,61,36,10.87,RU,2022-09-25 15:18:21
164,Cockburn Town,21.4612,-71.1419,82.94,78,89,16.71,TC,2022-09-25 15:18:21
165,Constitucion,-35.3333,-72.4167,54.99,67,53,9.26,CL,2022-09-25 15:18:22
166,Lebu,-37.6167,-73.65,52.18,66,7,3.22,CL,2022-09-25 15:17:53
167,Te Anau,-45.4167,167.7167,50.86,92,97,1.72,NZ,2022-09-25 15:18:22
168,Cherskiy,68.75,161.3,28.49,78,99,5.01,RU,2022-09-25 15:18:23
169,Opuwo,-18.0607,13.84,88.5,9,32,18.07,NA,2022-09-25 15:18:23
170,Bergen,60.392,5.328,51.08,90,75,20.71,NO,2022-09-25 15:18:23
171,Nemuro,43.3236,145.575,61.34,83,93,2.86,JP,2022-09-25 15:18:24
172,Lorengau,-2.0226,147.2712,81.55,73,98,10.98,PG,2022-09-25 15:18:24
173,Disna,55.568,28.1971,52.38,53,100,9.08,BY,2022-09-25 15:18:25
174,Hami,42.8,93.45,74.1,12,0,6.98,CN,2022-09-25 15:18:25
175,Tokur,53.1333,132.9,45.41,97,100,4.05,RU,2022-09-25 15:18:26
176,Maardu,59.4767,25.025,53.6,67,75,5.75,EE,2022-09-25 15:18:26
177,Touros,-5.1989,-35.4608,85.44,55,2,16.58,BR,2022-09-25 15:18:27
178,Nantucket,41.2835,-70.0995,71.71,61,0,16.11,US,2022-09-25 15:18:27
179,Lavrentiya,65.5833,-171.0,36.21,80,100,9.24,RU,2022-09-25 15:18:27
180,Atikokan,48.7555,-91.6216,52.9,87,99,9.93,CA,2022-09-25 15:18:28
181,Komsomolskiy,40.4272,71.7189,74.12,35,0,2.3,UZ,2022-09-25 15:18:28
182,Husavik,66.0449,-17.3389,36.93,89,100,47.62,IS,2022-09-25 15:19:29
183,Nikolskoye,59.7035,30.7861,48.78,97,100,2.37,RU,2022-09-25 15:19:29
184,Guangshui,31.6199,113.9978,61.74,75,29,1.97,CN,2022-09-25 15:19:29
185,Wanning,18.8003,110.3967,78.01,85,36,7.63,CN,2022-09-25 15:19:30
186,Jequitinhonha,-16.4339,-41.0033,69.37,88,100,2.89,BR,2022-09-25 15:19:30
187,Kieta,-6.2167,155.6333,77.97,82,42,1.14,PG,2022-09-25 15:19:31
188,Saint-Augustin,51.226,-58.6502,49.64,83,100,15.84,CA,2022-09-25 15:19:31
189,Mae Ramat,16.984,98.5166,77.79,98,100,0.45,TH,2022-09-25 15:19:31
190,Bandarbeyla,9.4942,50.8122,79.05,79,71,24.23,SO,2022-09-25 15:19:32
191,Russas,-4.9403,-37.9758,96.89,25,4,9.31,BR,2022-09-25 15:19:32
192,Sungairaya,0.7,108.9,77.95,88,100,0.83,ID,2022-09-25 15:19:33
193,Kodiak,57.79,-152.4072,35.11,93,0,6.91,US,2022-09-25 15:19:33
194,Thunder Bay,48.4001,-89.3168,51.78,93,100,2.3,CA,2022-09-25 15:19:12
195,Ponta Delgada,37.7333,-25.6667,77.5,68,75,16.11,PT,2022-09-25 15:19:34
196,Hammerfest,70.6634,23.6821,50.45,71,40,17.27,NO,2022-09-25 15:19:34
197,Erzin,36.9559,36.2,76.12,29,0,0.85,TR,2022-09-25 15:19:34
198,Iskateley,67.6803,53.1512,33.75,66,100,8.12,RU,2022-09-25 15:19:35
199,Pisco,-13.7,-76.2167,64.45,63,0,14.97,PE,2022-09-25 15:19:35
200,La Ronge,55.1001,-105.2842,48.45,71,40,6.91,CA,2022-09-25 15:19:36
201,Milas,37.3164,27.7839,78.15,25,0,14.97,TR,2022-09-25 15:19:36
202,Lompoc,34.6391,-120.4579,61.52,95,100,6.91,US,2022-09-25 15:19:36
203,Namibe,-15.1961,12.1522,67.96,73,41,10.16,AO,2022-09-25 15:19:37
204,Salinas,36.6777,-121.6555,62.69,87,100,4.61,US,2022-09-25 15:15:24
205,Paka,4.6374,103.4368,78.89,84,100,4.76,MY,2022-09-25 15:19:38
206,San Martin,-33.081,-68.4681,61.34,37,21,3.87,AR,2022-09-25 15:19:38
207,Yellowknife,62.456,-114.3525,41.56,81,75,11.5,CA,2022-09-25 15:19:39
208,Colares,38.7992,-9.4469,73.33,72,20,27.63,PT,2022-09-25 15:19:39
209,Kyra,49.5776,111.9753,38.3,54,100,1.19,RU,2022-09-25 15:19:40
210,Mount Gambier,-37.8333,140.7667,49.39,94,100,3.56,AU,2022-09-25 15:19:40
211,Adrar,20.5022,-10.0711,99.34,23,12,7.45,MR,2022-09-25 15:19:40
212,Sobolevo,54.4299,31.8996,49.08,70,100,9.35,RU,2022-09-25 15:19:41
213,Hun,29.1268,15.9477,87.73,26,0,7.43,LY,2022-09-25 15:19:41
214,Olga,43.7444,135.2892,55.63,85,100,3.56,RU,2022-09-25 15:19:42
215,Paharpur,32.1038,70.9724,90.86,40,0,4.79,PK,2022-09-25 15:19:42
216,Tornio,65.8481,24.1466,50.02,72,40,6.46,FI,2022-09-25 15:19:43
217,Marzuq,14.4,46.4667,83.98,38,97,8.86,YE,2022-09-25 15:19:43
218,Loughrea,53.1969,-8.5669,59.09,77,100,13.22,IE,2022-09-25 15:19:43
219,Conceicao Do Araguaia,-8.2578,-49.2647,98.15,31,44,4.97,BR,2022-09-25 15:19:44
220,Oyama,36.3,139.8,75.58,77,28,3.15,JP,2022-09-25 15:19:44
221,Hamilton,39.1834,-84.5333,70.2,71,75,13.8,US,2022-09-25 15:15:46
222,Vanavara,60.34,102.2797,30.13,92,96,3.71,RU,2022-09-25 15:19:45
223,Olkhovatka,50.2831,39.2872,52.05,68,93,12.3,RU,2022-09-25 15:19:45
224,Ishigaki,24.3448,124.1572,78.93,100,75,13.8,JP,2022-09-25 15:19:30
225,Arraial Do Cabo,-22.9661,-42.0278,78.76,60,40,12.66,BR,2022-09-25 15:19:46
226,Dingle,10.9995,122.6711,77.56,87,100,11.23,PH,2022-09-25 15:19:47
227,Olafsvik,64.8945,-23.7142,46.45,59,9,10.29,IS,2022-09-25 15:19:48
228,Padang,-0.9492,100.3543,75.25,84,81,3.69,ID,2022-09-25 15:19:48
229,Ostrov,57.3439,28.3537,47.93,66,95,6.24,RU,2022-09-25 15:20:49
230,George Town,5.4112,100.3354,81.9,79,20,0.0,MY,2022-09-25 15:20:49
231,Ajaccio,42.0,8.9167,71.65,65,40,9.22,FR,2022-09-25 15:16:38
232,Mariental,-24.6333,17.9667,88.79,9,85,30.18,NA,2022-09-25 15:20:50
233,Cayenne,4.9333,-52.3333,91.44,52,0,6.91,GF,2022-09-25 15:20:50
234,Huarmey,-10.0681,-78.1522,65.66,74,80,11.41,PE,2022-09-25 15:20:50
235,Pimentel,-6.8367,-79.9342,62.89,77,100,16.11,PE,2022-09-25 15:20:51
236,Vila,42.0304,-8.1588,60.69,46,6,8.59,PT,2022-09-25 15:20:51
237,Meulaboh,4.1363,96.1285,77.59,86,100,2.3,ID,2022-09-25 15:20:51
238,Kahului,20.8947,-156.47,76.84,68,0,3.44,US,2022-09-25 15:20:45
239,Owo,7.1962,5.5868,83.86,66,81,1.88,NG,2022-09-25 15:20:52
240,Kant,27.8,79.8,75.47,93,43,5.1,IN,2022-09-25 15:20:52
241,Buraydah,26.326,43.975,93.65,17,0,14.5,SA,2022-09-25 15:15:54
242,Saint-Leu,-21.15,55.2833,70.66,74,9,9.51,RE,2022-09-25 15:20:53
243,Ambilobe,-13.2,49.05,75.76,68,0,3.62,MG,2022-09-25 15:20:53
244,Palu,-0.8917,119.8707,75.6,96,88,2.3,ID,2022-09-25 15:18:38
245,Hailar,49.2,119.7,37.35,41,2,10.27,CN,2022-09-25 15:20:54
246,Mishelevka,52.8575,103.1719,39.0,88,100,6.49,RU,2022-09-25 15:20:54
247,Castro,-24.7911,-50.0119,52.66,85,100,7.4,BR,2022-09-25 15:20:55
248,Luderitz,-26.6481,15.1594,59.29,67,61,7.63,NA,2022-09-25 15:20:55
249,Ouegoa,-20.35,164.4333,72.5,85,1,5.23,NC,2022-09-25 15:20:56
250,Nacala,-14.5428,40.6728,78.37,71,0,8.68,MZ,2022-09-25 15:20:56
251,Kirundo,-2.5833,30.1667,74.7,47,97,1.7,BI,2022-09-25 15:20:56
252,Sembakung,3.8167,117.25,75.11,97,99,1.88,ID,2022-09-25 15:20:57
253,Anadyr,64.75,177.4833,25.3,93,0,8.95,RU,2022-09-25 15:20:14
254,Mahebourg,-20.4081,57.7,72.25,73,40,12.66,MU,2022-09-25 15:20:57
255,Saraland,30.8207,-88.0706,87.42,66,39,2.8,US,2022-09-25 15:20:58
256,Pouebo,-20.4,164.5667,71.76,86,2,3.98,NC,2022-09-25 15:20:58
257,Mount Hagen,-5.8581,144.2274,56.23,98,36,2.66,PG,2022-09-25 15:20:58
258,Lakes Entrance,-37.8811,147.981,43.16,89,95,4.63,AU,2022-09-25 15:20:59
259,Liverpool,53.4106,-2.9779,59.7,69,75,18.41,GB,2022-09-25 15:18:25
260,Hohhot,40.8106,111.6522,52.09,54,0,6.71,CN,2022-09-25 15:20:59
261,Gornopravdinsk,60.05,69.9,33.42,82,77,5.73,RU,2022-09-25 15:21:00
262,Hasaki,35.7333,140.8333,66.6,89,100,17.76,JP,2022-09-25 15:21:00
263,Anshun,26.25,105.9333,59.0,91,100,3.67,CN,2022-09-25 15:21:00
264,Camacha,33.0833,-16.3333,71.02,56,75,17.27,PT,2022-09-25 15:21:01
265,Gat,31.61,34.7642,90.39,38,0,14.9,IL,2022-09-25 15:21:01
266,Provideniya,64.3833,-173.3,34.99,79,87,5.75,RU,2022-09-25 15:21:02
267,Arlit,18.7369,7.3853,105.42,7,4,5.46,NE,2022-09-25 15:21:02
268,Horodyshche,49.2849,31.4451,57.4,59,100,7.0,UA,2022-09-25 15:21:03
269,Kano,12.0001,8.5167,91.29,52,40,4.61,NG,2022-09-25 15:21:03
270,Salyan,39.5936,48.9805,67.75,51,58,13.62,AZ,2022-09-25 15:21:04
271,Port Lincoln,-34.7333,135.8667,56.03,92,100,8.77,AU,2022-09-25 15:21:04
272,Romny,50.751,33.4747,53.85,58,8,10.74,UA,2022-09-25 15:21:05
273,Fairbanks,64.8378,-147.7164,40.3,87,0,5.75,US,2022-09-25 15:20:53
274,Novyye Gorki,56.7253,41.0601,47.88,88,99,0.78,RU,2022-09-25 15:22:06
275,Mildura,-34.2,142.15,60.08,71,100,5.79,AU,2022-09-25 15:22:06
276,Juneau,58.3019,-134.4197,54.21,97,100,9.22,US,2022-09-25 15:20:53
277,Muros,42.7762,-9.0603,68.09,55,14,17.02,ES,2022-09-25 15:22:07
278,Kajiado,-1.8524,36.7768,71.1,42,64,18.14,KE,2022-09-25 15:22:07
279,Yerbogachen,61.2767,108.0108,24.67,98,92,1.7,RU,2022-09-25 15:22:08
280,Providencia,28.7167,-111.5833,85.41,46,1,1.52,MX,2022-09-25 15:22:08
281,Berlevag,70.8578,29.0864,50.0,62,5,4.61,NO,2022-09-25 15:22:08
282,Torrington,41.8007,-73.1212,65.34,74,100,1.01,US,2022-09-25 15:22:09
283,Khor,47.8861,134.9464,50.49,89,89,6.91,RU,2022-09-25 15:22:09
284,Pangnirtung,66.1451,-65.7125,41.99,45,54,2.64,CA,2022-09-25 15:22:10
285,Boyolangu,-8.1181,111.8935,75.24,90,62,6.44,ID,2022-09-25 15:22:10
286,Kruisfontein,-34.0033,24.7314,65.88,72,90,17.85,ZA,2022-09-25 15:22:11
287,Arman,59.7,150.1667,38.23,62,100,9.69,RU,2022-09-25 15:22:11
288,Kaseda,31.4167,130.3167,77.43,82,99,4.61,JP,2022-09-25 15:22:12
289,Itapirapua,-15.8233,-50.6133,94.41,34,97,12.33,BR,2022-09-25 15:22:12
290,Angoche,-16.2325,39.9086,78.46,73,50,12.46,MZ,2022-09-25 15:22:12
291,Fare,-16.7,-151.0167,77.27,78,20,20.8,PF,2022-09-25 15:22:13
292,Sudak,44.85,34.9667,63.09,59,17,9.98,UA,2022-09-25 15:22:13
293,Torbay,47.6666,-52.7314,57.58,83,75,18.41,CA,2022-09-25 15:22:13
294,Jurilovca,44.7667,28.8667,73.49,55,71,18.68,RO,2022-09-25 15:22:14
295,Yulara,-25.2406,130.9889,69.44,53,96,11.61,AU,2022-09-25 15:22:14
296,Ostrovnoy,68.0531,39.5131,42.87,75,100,11.74,RU,2022-09-25 15:22:15
297,Guymon,36.6828,-101.4816,66.2,42,0,11.5,US,2022-09-25 15:22:15
298,Yar-Sale,66.8333,70.8333,30.0,80,59,11.39,RU,2022-09-25 15:22:15
299,Teknaf,20.8624,92.3058,80.15,83,100,1.52,BD,2022-09-25 15:22:16
300,Farafangana,-22.8167,47.8333,71.33,80,13,10.54,MG,2022-09-25 15:22:16
301,Torit,4.4133,32.5678,82.15,68,35,4.5,SS,2022-09-25 15:22:17
302,Clyde River,70.4692,-68.5914,43.03,65,0,11.5,CA,2022-09-25 15:22:17
303,Isangel,-19.55,169.2667,75.31,94,40,2.3,VU,2022-09-25 15:22:18
304,Soyo,-6.1349,12.3689,77.23,73,50,9.69,AO,2022-09-25 15:22:18
305,Qaqortoq,60.7167,-46.0333,49.6,73,100,4.05,GL,2022-09-25 15:22:18
306,Tsabong,-26.0217,22.401,95.86,11,6,19.82,BW,2022-09-25 15:22:19
307,Joshimath,30.5667,79.5667,64.78,91,99,0.65,IN,2022-09-25 15:22:19
308,Parabel,58.6978,81.4825,33.51,84,94,5.73,RU,2022-09-25 15:22:20
309,Faya,18.3851,42.4509,77.11,27,95,10.4,SA,2022-09-25 15:22:20
310,Namatanai,-3.6667,152.4333,78.82,81,40,7.61,PG,2022-09-25 15:22:21
311,Garhi Khairo,28.0606,67.9803,89.55,33,4,9.04,PK,2022-09-25 15:22:21
312,Rosehearty,57.697,-2.1132,60.62,65,100,21.77,GB,2022-09-25 15:22:21
313,Khilok,51.3674,110.4676,36.0,73,81,2.66,RU,2022-09-25 15:22:22
314,Aberystwyth,52.4155,-4.0829,57.88,68,100,13.85,GB,2022-09-25 15:22:22
315,Sosnovo-Ozerskoye,52.5249,111.5418,30.42,55,74,5.08,RU,2022-09-25 15:22:23
316,Ceglie Messapica,40.6439,17.5155,73.6,69,40,16.11,IT,2022-09-25 15:22:23
317,Collipulli,-37.95,-72.4333,56.26,51,17,2.59,CL,2022-09-25 15:22:23
318,Rancho Palos Verdes,33.7445,-118.387,76.51,79,0,5.75,US,2022-09-25 15:21:51
319,Metro,-5.1131,105.3067,75.88,89,8,6.02,ID,2022-09-25 15:22:24
320,Japura,-0.3167,102.35,76.1,87,53,2.3,ID,2022-09-25 15:23:25
321,Praia Da Vitoria,38.7333,-27.0667,75.76,73,75,20.2,PT,2022-09-25 15:23:25
322,Tabou,4.423,-7.3528,78.19,83,97,9.82,CI,2022-09-25 15:23:25
323,Evensk,61.95,159.2333,38.64,65,100,23.35,RU,2022-09-25 15:23:26
324,Sorland,67.667,12.6934,53.46,71,73,16.42,NO,2022-09-25 15:23:26
325,Acajutla,13.5928,-89.8275,80.17,83,92,3.71,SV,2022-09-25 15:23:27
326,Afua,-0.1567,-50.3867,91.38,51,16,5.75,BR,2022-09-25 15:23:27
327,Katakwi,1.8911,33.9661,76.19,56,56,3.02,UG,2022-09-25 15:23:27
328,Concarneau,47.875,-3.9225,65.19,62,95,10.42,FR,2022-09-25 15:18:35
329,Severo-Kurilsk,50.6789,156.125,50.68,94,94,8.97,RU,2022-09-25 15:23:28
330,Hollins,37.3413,-79.9431,73.45,59,75,11.5,US,2022-09-25 15:23:28
331,Porto Recanati,43.4365,13.6613,70.02,56,100,9.73,IT,2022-09-25 15:23:29
332,Kholm,59.2667,32.85,47.01,95,83,3.38,RU,2022-09-25 15:23:29
333,Envira,-7.3,-70.2167,90.99,44,47,3.47,BR,2022-09-25 15:23:29
334,Aktau,43.65,51.2,64.98,54,19,17.31,KZ,2022-09-25 15:21:15
335,Espirito Santo Do Pinhal,-22.1158,-46.6828,84.67,31,5,6.11,BR,2022-09-25 15:23:30
336,Raga,8.4596,25.678,80.53,82,92,3.38,SS,2022-09-25 15:23:31
337,Puerto Madero,14.7208,-92.4215,80.8,100,75,0.0,MX,2022-09-25 15:23:31
338,Grand Gaube,-20.0064,57.6608,72.37,67,1,7.0,MU,2022-09-25 15:23:32
339,Konstantinovo,54.6628,29.2699,49.77,63,99,9.37,BY,2022-09-25 15:23:32
340,Acapulco,16.8634,-99.8901,78.62,83,100,5.75,MX,2022-09-25 15:23:33
341,Kandrian,-6.2167,149.55,76.64,90,34,3.13,PG,2022-09-25 15:23:12
342,Vestmannaeyjar,63.4427,-20.2734,49.19,61,0,27.63,IS,2022-09-25 15:23:33
343,Araouane,18.9048,-3.5265,104.88,14,47,11.74,ML,2022-09-25 15:21:09
344,Umm Kaddadah,13.6017,26.6876,96.08,24,16,4.18,SD,2022-09-25 15:23:34
345,Luanda,-8.8368,13.2343,74.34,77,26,12.8,AO,2022-09-25 15:23:34
346,Misratah,32.3754,15.0925,79.77,63,33,14.12,LY,2022-09-25 15:23:35
347,Phan Thiet,10.9333,108.1,78.62,87,97,6.02,VN,2022-09-25 15:23:35
348,Podor,16.6527,-14.9587,87.75,66,0,2.3,MR,2022-09-25 15:23:36
349,Clonakilty,51.6231,-8.8706,59.09,68,100,10.51,IE,2022-09-25 15:23:36
350,Pietersburg,-23.9045,29.4688,81.45,21,0,12.66,ZA,2022-09-25 15:23:36
351,Santa Isabel Do Rio Negro,-0.4139,-65.0192,92.23,45,42,3.62,BR,2022-09-25 15:23:37
352,Santa Cruz,-17.8,-63.1667,87.26,48,20,18.41,BO,2022-09-25 15:23:37
353,Naryan-Mar,67.6713,53.087,33.85,66,100,8.23,RU,2022-09-25 15:22:43
354,Kyabram,-36.3167,145.05,53.87,70,100,5.5,AU,2022-09-25 15:23:38
355,Pemangkat,1.1667,108.9667,79.14,85,100,5.86,ID,2022-09-25 15:23:38
356,Ulladulla,-35.35,150.4667,52.14,83,94,3.65,AU,2022-09-25 15:23:38
357,Copiapo,-27.3667,-70.3333,56.89,37,91,5.39,CL,2022-09-25 15:23:39
358,Morgan City,29.6994,-91.2068,88.02,67,91,2.06,US,2022-09-25 15:23:39
359,Itamaraju,-17.0392,-39.5311,70.7,90,100,6.35,BR,2022-09-25 15:23:39
360,Charters Towers,-20.1,146.2667,67.69,92,43,8.75,AU,2022-09-25 15:23:40
361,Raton,36.9034,-104.4391,61.41,34,0,13.8,US,2022-09-25 15:23:40
362,Cedar City,37.6775,-113.0619,59.4,50,0,3.44,US,2022-09-25 15:23:41
363,Ust-Karsk,52.7011,118.8077,32.05,94,28,2.95,RU,2022-09-25 15:23:41
364,Kavaratti,10.5669,72.642,82.17,75,40,14.36,IN,2022-09-25 15:23:41
365,Palimbang,6.2106,124.1894,77.85,84,100,3.56,PH,2022-09-25 15:23:42
366,Tupelo,34.2576,-88.7034,77.29,73,75,8.05,US,2022-09-25 15:23:42
367,Ayan,56.45,138.1667,43.5,84,100,5.26,RU,2022-09-25 15:24:43
368,Sena Madureira,-9.0656,-68.6569,95.76,33,91,3.6,BR,2022-09-25 15:24:43
369,Coquimbo,-29.9533,-71.3436,58.73,72,0,9.22,CL,2022-09-25 15:22:07
370,Yumen,40.2833,97.2,65.25,12,0,7.14,CN,2022-09-25 15:24:44
371,Dunedin,-45.8742,170.5036,48.79,86,100,3.0,NZ,2022-09-25 15:24:44
372,Seoul,37.5683,126.9778,63.84,85,0,4.61,KR,2022-09-25 15:24:44
373,Kainantu,-6.2887,145.8655,58.64,97,64,0.13,PG,2022-09-25 15:23:13
374,Northam,51.0333,-4.2167,59.4,68,100,14.32,GB,2022-09-25 15:24:45
375,Kenai,60.5544,-151.2583,41.14,96,100,4.61,US,2022-09-25 15:24:46
376,Kristiansund,63.1115,7.732,48.85,81,75,9.22,NO,2022-09-25 15:24:46
377,Hondo,32.45,130.2,76.19,82,44,1.03,JP,2022-09-25 15:24:46
378,Port Hedland,-20.3167,118.5667,68.05,73,5,6.91,AU,2022-09-25 15:24:47
379,Mago,53.2514,140.1822,42.71,95,82,2.66,RU,2022-09-25 15:24:47
380,Banchory,57.0517,-2.4882,60.89,74,100,13.58,GB,2022-09-25 15:24:48
381,Korla,41.7597,86.1469,75.63,22,21,8.28,CN,2022-09-25 15:24:48
382,Vilhena,-12.7406,-60.1458,88.02,48,40,5.75,BR,2022-09-25 15:24:48
383,Teya,60.3778,92.6267,32.31,98,100,0.85,RU,2022-09-25 15:24:49
384,Amursk,50.2261,136.8994,50.77,95,2,6.89,RU,2022-09-25 15:24:49
385,Port Hueneme,34.1478,-119.1951,80.24,94,0,3.44,US,2022-09-25 15:24:49
386,La Asuncion,11.0333,-63.8628,94.73,55,18,12.66,VE,2022-09-25 15:24:50
387,Tanout,14.9709,8.8879,99.45,16,15,9.1,NE,2022-09-25 15:24:50
388,Pitimbu,-7.4706,-34.8086,82.99,62,8,15.64,BR,2022-09-25 15:24:50
389,Mitzic,0.7821,11.549,77.47,82,99,2.28,GA,2022-09-25 15:24:51
390,Santona,43.4439,-3.4576,66.6,59,9,9.73,ES,2022-09-25 15:24:51
391,Fengrun,39.8333,118.1167,61.07,52,0,0.29,CN,2022-09-25 15:24:52
392,Aransas Pass,27.9095,-97.15,88.02,82,0,3.44,US,2022-09-25 15:24:52
393,Bathsheba,13.2167,-59.5167,88.41,70,40,17.27,BB,2022-09-25 15:24:53
394,Najran,17.4924,44.1277,88.45,13,39,14.5,SA,2022-09-25 15:24:53
395,Ola,59.5833,151.2833,39.15,60,100,10.36,RU,2022-09-25 15:24:54
396,Ilulissat,69.2167,-51.1,39.22,45,20,12.66,GL,2022-09-25 15:24:54
397,Lasa,46.6166,10.7002,59.88,83,93,3.53,IT,2022-09-25 15:24:55
398,Mukhtolovo,55.4644,43.1953,47.1,88,72,5.61,RU,2022-09-25 15:24:55
399,Kurilsk,45.2333,147.8833,56.39,88,100,7.11,RU,2022-09-25 15:24:56
400,Tempio Pausania,40.8974,9.1035,74.32,54,37,7.0,IT,2022-09-25 15:24:56
401,Plettenberg Bay,-34.0527,23.3716,64.76,75,98,8.77,ZA,2022-09-25 15:24:57
402,Vagamo,61.8751,9.0967,51.89,58,96,8.03,NO,2022-09-25 15:24:57
403,Ahipara,-35.1667,173.1667,57.11,89,89,6.49,NZ,2022-09-25 15:24:58
404,Havoysund,70.9963,24.6622,52.03,72,7,18.32,NO,2022-09-25 15:24:58
405,Cangzhou,38.3167,116.8667,63.32,46,0,8.08,CN,2022-09-25 15:24:59
406,Port-Gentil,-0.7193,8.7815,82.36,74,75,19.57,GA,2022-09-25 15:24:59
407,Vila Velha,-20.3297,-40.2925,75.15,79,100,4.61,BR,2022-09-25 15:24:03
408,Ponta Do Sol,32.6667,-17.1,74.03,76,66,9.6,PT,2022-09-25 15:25:00
409,Russell,32.3502,-85.1999,79.97,69,0,0.0,US,2022-09-25 15:25:00
410,Katsuura,35.1333,140.3,72.3,87,79,12.48,JP,2022-09-25 15:25:01
411,Gimli,50.6336,-96.9907,55.42,67,6,13.8,CA,2022-09-25 15:25:01
412,Sulangan,11.1373,123.7228,82.02,80,100,16.42,PH,2022-09-25 15:25:01
413,Weyburn,49.6668,-103.8511,48.42,57,1,13.8,CA,2022-09-25 15:25:02
414,Veraval,20.9,70.3667,80.4,72,6,5.03,IN,2022-09-25 15:25:03
415,Lardos,36.0942,28.0157,76.82,45,0,4.12,GR,2022-09-25 15:26:03
416,Micheweni,-4.9667,39.8333,76.68,85,98,12.59,TZ,2022-09-25 15:26:03
417,Almeirim,-1.5233,-52.5817,93.85,41,13,6.06,BR,2022-09-25 15:26:04
418,Barbacoas,1.6715,-78.1398,84.0,71,82,2.35,CO,2022-09-25 15:26:04
419,Mabaruma,8.2,-59.7833,86.0,74,75,9.22,GY,2022-09-25 15:26:05
420,Iwaki,37.05,140.8833,61.77,95,45,6.06,JP,2022-09-25 15:26:05
421,Upata,8.0086,-62.3989,81.36,78,96,2.89,VE,2022-09-25 15:26:06
422,Bahile,9.9995,118.7878,76.87,91,100,11.95,PH,2022-09-25 15:26:06
423,Santa Vitoria Do Palmar,-33.5189,-53.3681,63.88,58,98,12.37,BR,2022-09-25 15:26:07
424,Keti Bandar,24.1447,67.4497,82.94,65,86,13.33,PK,2022-09-25 15:26:07
425,Iqaluit,63.7506,-68.5145,35.33,87,75,11.5,CA,2022-09-25 15:26:08
426,Pacific Grove,36.6177,-121.9166,59.43,94,100,4.61,US,2022-09-25 15:21:17
427,Yumbe,3.4651,31.2469,74.5,78,70,2.39,UG,2022-09-25 15:26:08
428,Aykhal,66.0,111.5,16.54,97,97,6.49,RU,2022-09-25 15:26:09
429,Hofn,64.2539,-15.2082,44.62,42,75,33.38,IS,2022-09-25 15:26:09
430,Lulea,65.5842,22.1547,50.07,87,75,16.11,SE,2022-09-25 15:26:09
431,Auki,-8.7676,160.7034,75.7,87,83,2.77,SB,2022-09-25 15:26:10
432,Prince Rupert,54.3161,-130.3201,57.29,94,100,8.05,CA,2022-09-25 15:26:10
433,Corner Brook,48.9667,-57.9484,51.96,89,100,11.79,CA,2022-09-25 15:26:10
434,Makakilo City,21.3469,-158.0858,77.32,85,0,4.61,US,2022-09-25 15:26:11
435,Manokwari,-0.8667,134.0833,79.03,78,87,5.59,ID,2022-09-25 15:26:11
436,Shibetsu,43.659,145.132,59.31,80,73,3.62,JP,2022-09-25 15:26:12
437,Aklavik,68.2191,-135.0107,35.6,93,100,3.44,CA,2022-09-25 15:26:12
438,Omsukchan,62.5333,155.8,23.27,95,100,2.75,RU,2022-09-25 15:26:12
439,Pimenta Bueno,-11.6725,-61.1936,95.32,37,7,4.14,BR,2022-09-25 15:26:13
440,La Reforma,25.0833,-108.05,82.02,83,10,5.19,MX,2022-09-25 15:26:13
441,Kabinda,-6.1333,24.4833,82.33,49,100,2.66,CD,2022-09-25 15:26:14
442,Zuwarah,32.9312,12.082,81.36,46,84,10.56,LY,2022-09-25 15:26:14
443,Peniche,39.3558,-9.3811,72.28,66,0,23.49,PT,2022-09-25 15:26:15
444,Jian,27.1172,114.9793,74.17,50,61,3.89,CN,2022-09-25 15:26:15
445,Twin Falls,42.3505,-114.6445,55.74,35,0,4.61,US,2022-09-25 15:26:15
446,Sayyan,15.1718,44.3244,70.63,19,79,15.1,YE,2022-09-25 15:26:16
447,Yakovlevka,44.425,133.4772,51.04,82,100,4.54,RU,2022-09-25 15:23:59
448,Asau,46.4333,26.4,61.72,55,43,0.38,RO,2022-09-25 15:26:16
449,Kiama,-34.6833,150.8667,59.0,91,18,6.2,AU,2022-09-25 15:26:17
450,Brae,60.3964,-1.353,55.67,85,100,35.75,GB,2022-09-25 15:26:17
451,Gamba,-2.65,10.0,77.74,79,91,10.89,GA,2022-09-25 15:26:17
452,Crestview,30.7621,-86.5705,85.77,66,0,4.0,US,2022-09-25 15:24:46
453,Sao Filipe,14.8961,-24.4956,79.77,76,36,14.05,CV,2022-09-25 15:26:18
454,Olinda,-8.0089,-34.8553,82.13,61,40,10.36,BR,2022-09-25 15:26:18
455,Soe,-9.8607,124.284,66.31,73,100,2.57,ID,2022-09-25 15:26:19
456,Nowogard,53.6744,15.1163,64.96,67,0,3.44,PL,2022-09-25 15:26:19
457,Taltal,-25.4,-70.4833,63.84,63,30,8.66,CL,2022-09-25 15:26:20
458,Belyy Yar,53.6039,91.3903,46.85,93,40,6.71,RU,2022-09-25 15:26:20
459,Chapais,49.7834,-74.8492,55.18,60,64,4.09,CA,2022-09-25 15:26:21
460,Ipora,-16.4419,-51.1178,92.71,27,99,10.38,BR,2022-09-25 15:26:21
461,Maniitsoq,65.4167,-52.9,42.66,58,100,1.92,GL,2022-09-25 15:26:21
462,Ewa Beach,21.3156,-158.0072,78.75,85,0,4.61,US,2022-09-25 15:26:22
463,Daru,-9.0763,143.2092,79.36,90,62,13.6,PG,2022-09-25 15:27:22
464,Solwezi,-12.1688,26.3894,86.27,16,100,4.43,ZM,2022-09-25 15:27:22
465,Kilindoni,-7.9139,39.6668,76.75,82,12,12.77,TZ,2022-09-25 15:27:23
466,Altay,47.8667,88.1167,58.1,46,7,3.76,CN,2022-09-25 15:27:23
467,Nome,64.5011,-165.4064,42.87,81,100,8.05,US,2022-09-25 15:27:24
468,Guadalupe,25.6833,-100.25,83.21,76,20,0.0,MX,2022-09-25 15:23:25
469,Nabire,-3.3667,135.4833,75.88,91,100,2.57,ID,2022-09-25 15:25:06
470,Santiago Del Estero,-27.7951,-64.2615,75.27,25,0,4.76,AR,2022-09-25 15:27:25
471,Miraflores,19.2167,-98.8083,63.97,81,97,2.28,MX,2022-09-25 15:27:25
472,Konya,38.1667,32.5,69.28,18,0,6.62,TR,2022-09-25 15:27:25
473,Isla Vista,34.4133,-119.861,86.31,75,0,0.0,US,2022-09-25 15:27:26
474,San Bartolome,27.9248,-15.5733,61.27,94,100,4.61,ES,2022-09-25 15:27:26
475,Baruun-Urt,46.6806,113.2792,42.87,44,6,6.98,MN,2022-09-25 15:27:27
476,Bowen,-20.0167,148.2333,74.26,74,1,11.68,AU,2022-09-25 15:27:27
477,Biskamzha,53.4497,89.5272,50.36,90,100,7.05,RU,2022-09-25 15:27:27
478,Sisophon,13.5859,102.9737,75.22,95,100,2.75,KH,2022-09-25 15:27:28
479,Kirkwall,58.9848,-2.9587,56.97,88,75,23.02,GB,2022-09-25 15:27:28
480,Sinnamary,5.3833,-52.95,87.44,60,5,12.37,GF,2022-09-25 15:27:28
481,Honiara,-9.4333,159.95,76.73,88,92,2.26,SB,2022-09-25 15:27:29
482,Bamako,12.65,-8.0,88.21,55,20,4.61,ML,2022-09-25 15:27:29
483,Morshansk,53.4435,41.8107,48.11,87,100,3.0,RU,2022-09-25 15:27:30
484,Kungurtug,50.5994,97.5228,43.07,56,95,1.83,RU,2022-09-25 15:27:30
485,Port Blair,11.6667,92.75,78.84,94,40,2.3,IN,2022-09-25 15:27:30
486,Bardiyah,31.7561,25.0865,75.69,63,0,13.91,LY,2022-09-25 15:27:31
487,Hammond,41.5834,-87.5,63.5,80,100,11.5,US,2022-09-25 15:27:31
488,Honolulu,21.3069,-157.8583,78.62,87,20,4.61,US,2022-09-25 15:23:28
489,Batagay,67.6333,134.6333,27.95,63,100,2.57,RU,2022-09-25 15:27:32
490,Sitka,57.0531,-135.33,53.49,94,75,3.44,US,2022-09-25 15:27:32
491,Makat,47.6469,53.3463,64.36,32,10,16.53,KZ,2022-09-25 15:27:33
492,Faget,45.85,22.1833,65.52,49,100,3.85,RO,2022-09-25 15:27:33
493,Tsiroanomandidy,-18.7667,46.0333,81.27,30,86,6.73,MG,2022-09-25 15:27:33
494,Twentynine Palms,34.1356,-116.0542,89.06,43,51,4.38,US,2022-09-25 15:27:34
495,Coahuayana,18.7333,-103.6833,82.71,77,59,1.59,MX,2022-09-25 15:27:34
496,Hovd,48.0056,91.6419,55.26,39,12,2.26,MN,2022-09-25 15:27:35
497,Ilo,-17.6394,-71.3375,63.95,68,47,11.1,PE,2022-09-25 15:27:35
498,Cuxhaven,53.8718,8.6909,61.97,65,87,12.53,DE,2022-09-25 15:27:36
499,Onega,63.9061,38.1404,42.42,90,100,8.01,RU,2022-09-25 15:27:36
500,Mao,39.8885,4.2658,72.16,68,40,14.97,ES,2022-09-25 15:25:00
501,Songjianghe,42.1859,127.479,44.76,87,0,5.79,CN,2022-09-25 15:27:36
502,Karratha,-20.7377,116.8463,78.85,24,4,13.4,AU,2022-09-25 15:27:37
503,Kirkuk,35.4681,44.3922,85.44,21,0,7.23,IQ,2022-09-25 15:27:37
504,Am Timan,11.0297,20.2827,87.93,61,69,1.21,TD,2022-09-25 15:27:38
505,Mackenzie,55.2999,-123.1698,52.02,93,100,9.22,CA,2022-09-25 15:22:47
506,Broome,42.2506,-75.833,56.86,90,100,11.5,US,2022-09-25 15:27:38
507,Humaita,-7.5061,-63.0208,101.8,29,1,0.89,BR,2022-09-25 15:27:39
508,Saint-Georges,12.0564,-61.7485,89.28,70,40,11.5,GD,2022-09-25 15:27:39
509,Fernley,39.608,-119.2518,66.81,26,0,1.77,US,2022-09-25 15:24:37
510,Maldonado,-34.6667,-54.9167,63.79,40,100,10.92,UY,2022-09-25 15:28:39
511,La Sarre,48.8002,-79.1996,52.18,73,100,5.57,CA,2022-09-25 15:28:40
512,San Luis,-33.295,-66.3356,54.99,64,100,4.12,AR,2022-09-25 15:28:41
513,Sompeta,18.9333,84.6,81.43,81,80,1.54,IN,2022-09-25 15:28:41
514,Poum,-20.2333,164.0167,75.4,78,0,15.03,NC,2022-09-25 15:28:42
515,Lindas,60.7381,5.16,50.72,89,100,18.01,NO,2022-09-25 15:28:42
516,Longonjo,-12.9067,15.2533,86.36,27,73,6.04,AO,2022-09-25 15:28:42
517,Tapejara,-28.0681,-52.0139,62.98,96,100,7.63,BR,2022-09-25 15:28:43
518,Marfino,55.7028,37.3822,46.65,81,75,4.47,RU,2022-09-25 15:28:43
519,Catuday,16.2923,119.8062,80.64,83,100,6.49,PH,2022-09-25 15:28:44
520,Mujiayingzi,42.1167,118.7833,58.23,39,0,1.68,CN,2022-09-25 15:28:44
521,Kavieng,-2.5744,150.7967,81.97,73,5,11.39,PG,2022-09-25 15:28:45
522,Wanaka,-44.7,169.15,50.11,80,100,4.18,NZ,2022-09-25 15:28:45
523,Schwandorf,49.3262,12.1093,62.04,82,99,4.47,DE,2022-09-25 15:28:46
524,Port Keats,-14.25,129.55,78.94,89,40,5.91,AU,2022-09-25 15:28:46
525,Remeti,47.9833,23.6333,55.99,80,100,3.4,RO,2022-09-25 15:28:46
526,Camana,-16.6228,-72.7111,66.27,66,43,12.91,PE,2022-09-25 15:28:47
527,Puerto Del Rosario,28.5004,-13.8627,69.55,94,75,12.66,ES,2022-09-25 15:28:48
528,Vaitape,-16.5167,-151.75,77.18,77,19,19.24,PF,2022-09-25 15:28:48
529,Balakhninskiy,58.0106,114.2769,32.85,93,100,4.07,RU,2022-09-25 15:28:48
530,Agde,43.3108,3.4758,73.94,40,0,12.66,FR,2022-09-25 15:28:49
531,Xining,36.6167,101.7667,50.0,73,21,4.38,CN,2022-09-25 15:28:50
532,Bubaque,11.2833,-15.8333,75.97,86,100,6.71,GW,2022-09-25 15:28:50
533,Sawtell,-30.3833,153.1,56.19,94,1,0.0,AU,2022-09-25 15:28:51
534,Petropavlovsk-Kamchatskiy,53.0452,158.6483,43.39,100,75,4.47,RU,2022-09-25 15:28:51
535,Jining,35.405,116.5814,61.52,58,0,5.84,CN,2022-09-25 15:28:51
536,Saiha,22.4833,92.9667,70.45,99,100,2.37,IN,2022-09-25 15:28:52
537,Biak,-0.9131,122.8766,74.73,77,39,5.84,ID,2022-09-25 15:28:52
538,Sovetskiy,61.3614,63.5842,35.92,66,10,7.52,RU,2022-09-25 15:27:58
539,Shenjiamen,29.9576,122.298,70.74,71,7,8.05,CN,2022-09-25 15:28:53
540,Broken Hill,-31.95,141.4333,67.93,43,100,6.55,AU,2022-09-25 15:25:31
